{"index": {"_index": "vending_machines", "_id": "1"}}
{"machine_id": "1", "store_name": "Archer House", "address": "2130 Neil Ave", "city": "Columbus", "zip": "43210", "campus": "North Campus (Columbus)", "status": "Normal", "special_access": false, "rating": 0, "payment_methods": ["Visa", "Apple Pay", "Discover", "MasterCard", "Google Pay", "AmEx", "Cash"], "room_number": "1st floor", "services": ["drinks"], "provider": "Coca Cola", "location": {"lat": -83.01411135, "lon": 40.00520225}}
{"index": {"_index": "vending_machines", "_id": "2"}}
{"machine_id": "2", "store_name": "Archer House", "address": "2131 Neil Ave", "city": "Columbus", "zip": "43211", "campus": "North Campus (Columbus)", "status": "Normal", "special_access": false, "rating": 0, "payment_methods": ["Visa", "Apple Pay", "Discover", "MasterCard", "AmEx", "Cash"], "room_number": "1st floor", "services": ["snacks"], "provider": "Various", "location": {"lat": -83.0141398, "lon": 40.00514117}}
{"index": {"_index": "vending_machines", "_id": "3"}}
{"machine_id": "3", "store_name": "Baker Hall", "address": "129 W. 12th Ave.", "city": "Columbus", "zip": "43210", "campus": "South Campus (Columbus)", "status": "Normal", "special_access": true, "rating": 0, "payment_methods": ["BuckID"], "room_number": "nan", "services": ["other"], "provider": "UNKNOWN", "location": {"lat": -83.01063595, "lon": 39.99665625}}
{"index": {"_index": "vending_machines", "_id": "4"}}
{"machine_id": "4", "store_name": "Baker Systems Engineering", "address": "1971 Neil Ave.", "city": "Columbus", "zip": "43210", "campus": "North Campus (Columbus)", "status": "Normal", "special_access": false, "rating": 0, "payment_methods": ["Cash", "BuckID", "Visa", "Apple Pay", "Discover", "MasterCard", "Google Pay", "AmEx"], "room_number": "1st Floor", "services": ["drinks"], "provider": "DASANI", "location": {"lat": -83.01594, "lon": 40.00187}}
{"index": {"_index": "vending_machines", "_id": "5"}}
{"machine_id": "5", "store_name": "Baker Systems Engineering", "address": "1971 Neil Ave.", "city": "Columbus", "zip": "43210", "campus": "North Campus (Columbus)", "status": "Normal", "special_access": false, "rating": 0, "payment_methods": ["Cash", "Visa", "Apple Pay", "Discover", "MasterCard", "Google Pay", "AmEx"], "room_number": "1st Floor", "services": ["drinks"], "provider": "Coca Cola", "location": {"lat": -83.01594, "lon": 40.00187}}
{"index": {"_index": "vending_machines", "_id": "6"}}
{"machine_id": "6", "store_name": "Barrett House", "address": "88 West Woodruff Avenue", "city": "Columbus", "zip": "43210", "campus": "North Campus (Columbus)", "status": "Normal", "special_access": false, "rating": 0, "payment_methods": ["Cash", "BuckID"], "room_number": "1st floor", "services": ["drinks"], "provider": "Coca Cola", "location": {"lat": -83.01088964, "lon": 40.00471844}}
{"index": {"_index": "vending_machines", "_id": "7"}}
{"machine_id": "7", "store_name": "Bevis Hall", "address": "1080 Carmack Rd", "city": "Columbus", "zip": "43210", "campus": "West Campus (Columbus)", "status": "Normal", "special_access": false, "rating": 0, "payment_methods": ["BuckID"], "room_number": "nan", "services": ["other"], "provider": "UNKNOWN", "location": {"lat": -83.03808133, "lon": 40.00287156}}
{"index": {"_index": "vending_machines", "_id": "8"}}
{"machine_id": "8", "store_name": "Biological Sciences Building", "address": "484 W 12th Ave", "city": "Columbus", "zip": "43210", "campus": "West Campus (Columbus)", "status": "Normal", "special_access": false, "rating": 0, "payment_methods": ["BuckID"], "room_number": "nan", "services": ["other"], "provider": "UNKNOWN", "location": {"lat": -83.020567, "lon": 39.99655568}}
{"index": {"_index": "vending_machines", "_id": "9"}}
{"machine_id": "9", "store_name": "Blackburn House", "address": "120 W. Woodruff Ave.", "city": "Columbus", "zip": "43210", "campus": "North Campus (Columbus)", "status": "Normal", "special_access": false, "rating": 0, "payment_methods": ["Visa", "Apple Pay", "Discover", "MasterCard", "Google Pay", "AmEx", "Cash"], "room_number": "1st floor", "services": ["drinks"], "provider": "Dasani", "location": {"lat": -83.0123046, "lon": 40.00413617}}
{"index": {"_index": "vending_machines", "_id": "10"}}
{"machine_id": "10", "store_name": "Blackburn House", "address": "121 W. Woodruff Ave.", "city": "Columbus", "zip": "43211", "campus": "North Campus (Columbus)", "status": "Normal", "special_access": false, "rating": 0, "payment_methods": ["Visa", "Apple Pay", "Discover", "MasterCard", "Google Pay", "AmEx", "Cash"], "room_number": "1st floor", "services": ["drinks"], "provider": "Coca Cola", "location": {"lat": -83.01223402, "lon": 40.00413086}}
{"index": {"_index": "vending_machines", "_id": "11"}}
{"machine_id": "11", "store_name": "Blackburn House", "address": "122 W. Woodruff Ave.", "city": "Columbus", "zip": "43212", "campus": "North Campus (Columbus)", "status": "Normal", "special_access": false, "rating": 0, "payment_methods": ["Visa", "Apple Pay", "Discover", "MasterCard", "AmEx", "Cash"], "room_number": "1st floor", "services": ["snacks"], "provider": "Various", "location": {"lat": -83.01213547, "lon": 40.00411931}}
{"index": {"_index": "vending_machines", "_id": "12"}}
{"machine_id": "12", "store_name": "Bradley Hall", "address": "221 W 12th Ave", "city": "Columbus", "zip": "43210", "campus": "South Campus (Columbus)", "status": "Normal", "special_access": true, "rating": 0, "payment_methods": ["Cash", "Mastercard", "visa", "AmEx", "Discover"], "room_number": "nan", "services": ["other"], "provider": "UNKNOWN", "location": {"lat": -83.01359, "lon": 39.99667}}
{"index": {"_index": "vending_machines", "_id": "13"}}
{"machine_id": "13", "store_name": "Bradley Hall", "address": "221 W 12th Ave", "city": "Columbus", "zip": "43210", "campus": "South Campus (Columbus)", "status": "Normal", "special_access": true, "rating": 0, "payment_methods": ["Visa", "Apple Pay", "Discover", "MasterCard", "Google Pay", "AmEx", "Cash"], "room_number": "1st floor", "services": ["snacks"], "provider": "Various", "location": {"lat": -83.01359, "lon": 39.99667}}
{"index": {"_index": "vending_machines", "_id": "14"}}
{"machine_id": "14", "store_name": "Bradley Hall", "address": "221 W 12th Ave", "city": "Columbus", "zip": "43210", "campus": "South Campus (Columbus)", "status": "Normal", "special_access": true, "rating": 0, "payment_methods": ["Visa", "Apple Pay", "Discover", "MasterCard", "Google Pay", "AmEx", "Cash"], "room_number": "1st floor", "services": ["drinks"], "provider": "Coca Cola", "location": {"lat": -83.01359, "lon": 39.99667}}
{"index": {"_index": "vending_machines", "_id": "15"}}
{"machine_id": "15", "store_name": "Buckeye Village", "address": "2661 Defiance Dr.", "city": "Columbus", "zip": "43210", "campus": "West Campus (Columbus)", "status": "Normal", "special_access": false, "rating": 0, "payment_methods": ["BuckID"], "room_number": "1st floor", "services": ["drinks"], "provider": "Dasani", "location": {"lat": -83.01359, "lon": 39.99667}}
{"index": {"_index": "vending_machines", "_id": "16"}}
{"machine_id": "16", "store_name": "Canfield Hall", "address": "236 W. 11th Ave.", "city": "Columbus", "zip": "43210", "campus": "South Campus (Columbus)", "status": "Normal", "special_access": false, "rating": 0, "payment_methods": ["BuckID"], "room_number": "nan", "services": ["other"], "provider": "UNKNOWN", "location": {"lat": -83.01368585, "lon": 39.99592881}}
{"index": {"_index": "vending_machines", "_id": "17"}}
{"machine_id": "17", "store_name": "Denny Hall", "address": "164 W 17th Ave", "city": "Columbus", "zip": "43210", "campus": "North Campus (Columbus)", "status": "Normal", "special_access": false, "rating": 0, "payment_methods": ["Visa", "Apple Pay", "Discover", "MasterCard", "Google Pay", "AmEx", "Cash"], "room_number": "1st floor", "services": ["drinks"], "provider": "Coca Cola", "location": {"lat": -83.01224576, "lon": 40.0014}}
{"index": {"_index": "vending_machines", "_id": "18"}}
{"machine_id": "18", "store_name": "Denny Hall", "address": "165 W 17th Ave", "city": "Columbus", "zip": "43211", "campus": "North Campus (Columbus)", "status": "Normal", "special_access": false, "rating": 0, "payment_methods": ["Visa", "Apple Pay", "Discover", "MasterCard", "Google Pay", "AmEx", "Cash"], "room_number": "1st floor", "services": ["snacks"], "provider": "Various", "location": {"lat": -83.01219644, "lon": 40.0013219}}
{"index": {"_index": "vending_machines", "_id": "19"}}
{"machine_id": "19", "store_name": "Drackett Tower", "address": "191 West Lane Avenue", "city": "Columbus", "zip": "43210", "campus": "North Campus (Columbus)", "status": "Normal", "special_access": false, "rating": 0, "payment_methods": ["Visa", "Apple Pay", "Discover", "MasterCard", "Google Pay", "AmEx", "Cash"], "room_number": "1st floor", "services": ["drinks"], "provider": "Coca Cola", "location": {"lat": -83.01345404, "lon": 40.00551388}}
{"index": {"_index": "vending_machines", "_id": "20"}}
{"machine_id": "20", "store_name": "Drackett Tower", "address": "192 West Lane Avenue", "city": "Columbus", "zip": "43211", "campus": "North Campus (Columbus)", "status": "Normal", "special_access": false, "rating": 0, "payment_methods": ["Visa", "Apple Pay", "Discover", "MasterCard", "Google Pay", "AmEx", "Cash"], "room_number": "1st floor", "services": ["drinks"], "provider": "Coca Cola", "location": {"lat": -83.01337536, "lon": 40.00552528}}
{"index": {"_index": "vending_machines", "_id": "21"}}
{"machine_id": "21", "store_name": "Drackett Tower", "address": "193 West Lane Avenue", "city": "Columbus", "zip": "43212", "campus": "North Campus (Columbus)", "status": "Normal", "special_access": false, "rating": 0, "payment_methods": ["Visa", "Apple Pay", "Discover", "MasterCard", "AmEx", "Cash"], "room_number": "1st floor", "services": ["snacks"], "provider": "Various", "location": {"lat": -83.01325673, "lon": 40.00551734}}
{"index": {"_index": "vending_machines", "_id": "22"}}
{"machine_id": "22", "store_name": "Fawcett Center", "address": "2400 Olentangy River Rd.", "city": "Columbus", "zip": "43210", "campus": "West Campus (Columbus)", "status": "Normal", "special_access": false, "rating": 0, "payment_methods": ["BuckID"], "room_number": "nan", "services": ["other"], "provider": "UNKNOWN", "location": {"lat": -83.02076278, "lon": 40.01079892}}
{"index": {"_index": "vending_machines", "_id": "23"}}
{"machine_id": "23", "store_name": "Hale Hall", "address": "153 W 12th Ave", "city": "Columbus", "zip": "43210", "campus": "North Campus (Columbus)", "status": "Normal", "special_access": false, "rating": 0, "payment_methods": ["BuckID"], "room_number": "nan", "services": ["other"], "provider": "UNKNOWN", "location": {"lat": -83.01168401, "lon": 39.99657169}}
{"index": {"_index": "vending_machines", "_id": "24"}}
{"machine_id": "24", "store_name": "Hitchcock Hall", "address": "2070 Neil Ave", "city": "Columbus", "zip": "43210", "campus": "North Campus (Columbus)", "status": "Normal", "special_access": false, "rating": 0, "payment_methods": ["Cash", "BuckID", "Visa", "Apple Pay", "Discover", "MasterCard", "GooglePay", "AmEx"], "room_number": "1st Floor Bolz Hall", "services": ["drinks"], "provider": "Coca Cola", "location": {"lat": -83.01528, "lon": 40.00309}}
{"index": {"_index": "vending_machines", "_id": "25"}}
{"machine_id": "25", "store_name": "Houck House", "address": "61 Curl Dr.", "city": "Columbus", "zip": "43210", "campus": "North Campus (Columbus)", "status": "Normal", "special_access": false, "rating": 0, "payment_methods": ["BuckID"], "room_number": "nan", "services": ["other"], "provider": "UNKNOWN", "location": {"lat": -83.01097295, "lon": 40.00546109}}
{"index": {"_index": "vending_machines", "_id": "26"}}
{"machine_id": "26", "store_name": "Hughes Hall", "address": "1899 College Rd", "city": "Columbus", "zip": "43210", "campus": "North Campus (Columbus)", "status": "Normal", "special_access": false, "rating": 0, "payment_methods": ["BuckID"], "room_number": "nan", "services": ["other"], "provider": "UNKNOWN", "location": {"lat": -83.0107383, "lon": 40.0011725}}
{"index": {"_index": "vending_machines", "_id": "27"}}
{"machine_id": "27", "store_name": "Independence Hall", "address": "1923 Neil Ave.", "city": "Columbus", "zip": "43210", "campus": "West Campus (Columbus)", "status": "Normal", "special_access": false, "rating": 0, "payment_methods": ["Cash", "BuckID", "Visa", "Apple Pay", "Discover", "MasterCard", "GooglePay", "AmEx"], "room_number": "1st Floor", "services": ["drinks"], "provider": "Coca Cola", "location": {"lat": -83.01572, "lon": 40.00043}}
{"index": {"_index": "vending_machines", "_id": "28"}}
{"machine_id": "28", "store_name": "Independence Hall", "address": "1923 Neil Ave.", "city": "Columbus", "zip": "43210", "campus": "West Campus (Columbus)", "status": "Normal", "special_access": false, "rating": 0, "payment_methods": ["Cash", "BuckID", "Visa", "Apple Pay", "Discover", "MasterCard", "GooglePay", "AmEx"], "room_number": "1st Floor", "services": ["drinks"], "provider": "Coca Cola", "location": {"lat": -83.01572, "lon": 40.00043}}
{"index": {"_index": "vending_machines", "_id": "29"}}
{"machine_id": "29", "store_name": "Independence Hall", "address": "1923 Neil Ave.", "city": "Columbus", "zip": "43210", "campus": "West Campus (Columbus)", "status": "Normal", "special_access": false, "rating": 0, "payment_methods": ["Cash", "BuckID", "Visa", "Apple Pay", "Discover", "MasterCard", "GooglePay", "AmEx"], "room_number": "1st Floor", "services": ["drinks"], "provider": "Various", "location": {"lat": -83.01572, "lon": 40.00043}}
{"index": {"_index": "vending_machines", "_id": "30"}}
{"machine_id": "30", "store_name": "Jones Tower", "address": "123 West Lane Avenue", "city": "Columbus", "zip": "43210", "campus": "North Campus (Columbus)", "status": "Normal", "special_access": true, "rating": 0, "payment_methods": ["BuckID"], "room_number": "nan", "services": ["other"], "provider": "UNKNOWN", "location": {"lat": -83.01195937, "lon": 40.00542142}}
{"index": {"_index": "vending_machines", "_id": "31"}}
{"machine_id": "31", "store_name": "Knowlton Hall", "address": "275 W Woodruff Ave", "city": "Columbus", "zip": "43210", "campus": "North Campus (Columbus)", "status": "Normal", "special_access": false, "rating": 0, "payment_methods": ["BuckID"], "room_number": "1st Floor", "services": ["drinks"], "provider": "Coca Cola", "location": {"lat": -83.01622, "lon": 40.00357}}
{"index": {"_index": "vending_machines", "_id": "32"}}
{"machine_id": "32", "store_name": "Lazenby Hall", "address": "1827 Neil Ave Mall", "city": "Columbus", "zip": "43210", "campus": "North Campus (Columbus)", "status": "Normal", "special_access": false, "rating": 0, "payment_methods": ["BuckID"], "room_number": "nan", "services": ["other"], "provider": "UNKNOWN", "location": {"lat": -83.01570797, "lon": 39.9987377}}
{"index": {"_index": "vending_machines", "_id": "33"}}
{"machine_id": "33", "store_name": "Lincoln Tower", "address": "1800 Cannon Dr.", "city": "Columbus", "zip": "43210", "campus": "West Campus (Columbus)", "status": "Normal", "special_access": true, "rating": 0, "payment_methods": ["BuckID"], "room_number": "nan", "services": ["other"], "provider": "UNKNOWN", "location": {"lat": -83.02225467, "lon": 39.99883758}}
{"index": {"_index": "vending_machines", "_id": "34"}}
{"machine_id": "34", "store_name": "Mack Hall", "address": "1698 Neil Ave.", "city": "Columbus", "zip": "43210", "campus": "South Campus (Columbus)", "status": "Normal", "special_access": false, "rating": 0, "payment_methods": ["BuckID"], "room_number": "nan", "services": ["other"], "provider": "UNKNOWN", "location": {"lat": -83.01435285, "lon": 39.99592224}}
{"index": {"_index": "vending_machines", "_id": "35"}}
{"machine_id": "35", "store_name": "Mendoza House", "address": "194 W. Woodruff Ave.", "city": "Columbus", "zip": "43210", "campus": "North Campus (Columbus)", "status": "Normal", "special_access": false, "rating": 0, "payment_methods": ["BuckID"], "room_number": "nan", "services": ["other"], "provider": "UNKNOWN", "location": {"lat": -83.01351848, "lon": 40.00554814}}
{"index": {"_index": "vending_machines", "_id": "36"}}
{"machine_id": "36", "store_name": "Morrill Tower", "address": "1900 Cannon Dr.", "city": "Columbus", "zip": "43210", "campus": "West Campus (Columbus)", "status": "Normal", "special_access": true, "rating": 0, "payment_methods": ["BuckID"], "room_number": "nan", "services": ["other"], "provider": "UNKNOWN", "location": {"lat": -83.02203627, "lon": 40.00032301}}
{"index": {"_index": "vending_machines", "_id": "37"}}
{"machine_id": "37", "store_name": "Morrison Tower", "address": "196 W. 11th Ave.", "city": "Columbus", "zip": "43210", "campus": "South Campus (Columbus)", "status": "Normal", "special_access": false, "rating": 0, "payment_methods": ["BuckID"], "room_number": "nan", "services": ["other"], "provider": "UNKNOWN", "location": {"lat": -83.01279691, "lon": 39.99598711}}
{"index": {"_index": "vending_machines", "_id": "38"}}
{"machine_id": "38", "store_name": "Neil Building", "address": "1578 Neil Avenue", "city": "Columbus", "zip": "43210", "campus": "South Campus (Columbus)", "status": "Normal", "special_access": false, "rating": 0, "payment_methods": ["BuckID"], "room_number": "nan", "services": ["other"], "provider": "UNKNOWN", "location": {"lat": -83.01403272, "lon": 39.99398759}}
{"index": {"_index": "vending_machines", "_id": "39"}}
{"machine_id": "39", "store_name": "Norton House", "address": "2114 Neil Ave.", "city": "Columbus", "zip": "43210", "campus": "North Campus (Columbus)", "status": "Normal", "special_access": true, "rating": 0, "payment_methods": ["BuckID"], "room_number": "nan", "services": ["other"], "provider": "UNKNOWN", "location": {"lat": -83.0138764, "lon": 40.00495683}}
{"index": {"_index": "vending_machines", "_id": "40"}}
{"machine_id": "40", "store_name": "Nosker House", "address": "136 W. Woodruff Ave.", "city": "Columbus", "zip": "43210", "campus": "North Campus (Columbus)", "status": "Normal", "special_access": true, "rating": 0, "payment_methods": ["BuckID"], "room_number": "nan", "services": ["other"], "provider": "UNKNOWN", "location": {"lat": -83.01255334, "lon": 40.00438085}}
{"index": {"_index": "vending_machines", "_id": "41"}}
{"machine_id": "41", "store_name": "Park-Stradley Hall", "address": "120 W. 11th Ave.", "city": "Columbus", "zip": "43210", "campus": "South Campus (Columbus)", "status": "Normal", "special_access": true, "rating": 0, "payment_methods": ["Cash", "BuckID"], "room_number": "Room 181", "services": ["drinks"], "provider": "Various", "location": {"lat": -83.01033, "lon": 39.99578}}
{"index": {"_index": "vending_machines", "_id": "42"}}
{"machine_id": "42", "store_name": "Park-Stradley Hall", "address": "120 W. 11th Ave.", "city": "Columbus", "zip": "43210", "campus": "South Campus (Columbus)", "status": "Normal", "special_access": true, "rating": 0, "payment_methods": ["Cash", "BuckID"], "room_number": "Room 181", "services": ["drinks"], "provider": "Coca Cola", "location": {"lat": -83.01033, "lon": 39.99578}}
{"index": {"_index": "vending_machines", "_id": "43"}}
{"machine_id": "43", "store_name": "Paterson Hall", "address": "191 W. 12th Ave.", "city": "Columbus", "zip": "43210", "campus": "South Campus (Columbus)", "status": "Normal", "special_access": true, "rating": 0, "payment_methods": ["Cash", "visa", "Apple Pay", "Discover", "Mastercard", "Google Pay", "AmEx"], "room_number": "1st floor", "services": ["drinks"], "provider": "Various", "location": {"lat": -83.01244, "lon": 39.99642}}
{"index": {"_index": "vending_machines", "_id": "44"}}
{"machine_id": "44", "store_name": "Paterson Hall", "address": "191 W. 12th Ave.", "city": "Columbus", "zip": "43210", "campus": "South Campus (Columbus)", "status": "Normal", "special_access": true, "rating": 0, "payment_methods": ["Cash", "BuckID"], "room_number": "1st floor", "services": ["drinks"], "provider": "Coca Cola", "location": {"lat": -83.01239, "lon": 39.9964}}
{"index": {"_index": "vending_machines", "_id": "45"}}
{"machine_id": "45", "store_name": "Paterson Hall", "address": "191 W. 12th Ave.", "city": "Columbus", "zip": "43210", "campus": "South Campus (Columbus)", "status": "Normal", "special_access": true, "rating": 0, "payment_methods": ["Cash", "Mastercard", "Visa", "AmEx", "Discover"], "room_number": "1st floor", "services": ["snacks"], "provider": "Various", "location": {"lat": -83.01239, "lon": 39.99639}}
{"index": {"_index": "vending_machines", "_id": "46"}}
{"machine_id": "46", "store_name": "Physical Activities & Education Services (PAES)", "address": "305 W 17th Ave", "city": "Columbus", "zip": "43210", "campus": "North Campus (Columbus)", "status": "Normal", "special_access": true, "rating": 0, "payment_methods": ["BuckID"], "room_number": "nan", "services": ["other"], "provider": "UNKNOWN", "location": {"lat": -83.01815738, "lon": 39.99971056}}
{"index": {"_index": "vending_machines", "_id": "47"}}
{"machine_id": "47", "store_name": "Postle Hall", "address": "305 W 12th Ave", "city": "Columbus", "zip": "43210", "campus": "North Campus (Columbus)", "status": "Normal", "special_access": false, "rating": 0, "payment_methods": ["BuckID"], "room_number": "nan", "services": ["other"], "provider": "UNKNOWN", "location": {"lat": -83.01639384, "lon": 39.99614465}}
{"index": {"_index": "vending_machines", "_id": "48"}}
{"machine_id": "48", "store_name": "Science and Engineering Library (SEL)", "address": "175 W. 18th Ave", "city": "Columbus", "zip": "43210", "campus": "North Campus (Columbus)", "status": "Temporarily Unavailable", "special_access": false, "rating": 0, "payment_methods": ["Cash", "BuckID"], "room_number": "By elevator on 1st floor", "services": ["drinks"], "provider": "Coca Cola", "location": {"lat": -83.01327, "lon": 40.00181}}
{"index": {"_index": "vending_machines", "_id": "49"}}
{"machine_id": "49", "store_name": "Science and Engineering Library (SEL)", "address": "175 W. 18th Ave", "city": "Columbus", "zip": "43210", "campus": "North Campus (Columbus)", "status": "Normal", "special_access": false, "rating": 0, "payment_methods": ["Cash", "Visa", "Apple Pay", "Discover", "Mastercard", "Google Pay", "AmEx"], "room_number": "By elevator on 1st floor", "services": ["drinks"], "provider": "Dasani", "location": {"lat": -83.01327, "lon": 40.00181}}
{"index": {"_index": "vending_machines", "_id": "50"}}
{"machine_id": "50", "store_name": "Science and Engineering Library (SEL)", "address": "175 W. 18th Ave", "city": "Columbus", "zip": "43210", "campus": "South Campus (Columbus)", "status": "Normal", "special_access": false, "rating": 0, "payment_methods": ["Cash", "Mastercard", "Visa", "AmEx", "Discover"], "room_number": "By elevator on 1st floor", "services": ["snacks"], "provider": "Various", "location": {"lat": -83.01327, "lon": 40.00181}}
{"index": {"_index": "vending_machines", "_id": "51"}}
{"machine_id": "51", "store_name": "Scott Laboratory", "address": "201 W. 19th Ave.", "city": "Columbus", "zip": "43210", "campus": "North Campus (Columbus)", "status": "Temporarily Unavailable", "special_access": true, "rating": 0, "payment_methods": ["Cash", "BuckID", "Visa", "Apple Pay", "Discover", "Mastercard", "GooglePay", "AmEx"], "room_number": "1st Floor Student Lounge", "services": ["drinks"], "provider": "Coca Cola", "location": {"lat": -83.01394, "lon": 40.00268}}
{"index": {"_index": "vending_machines", "_id": "52"}}
{"machine_id": "52", "store_name": "Scott Laboratory", "address": "201 W. 19th Ave.", "city": "Columbus", "zip": "43210", "campus": "North Campus (Columbus)", "status": "Temporarily Unavailable", "special_access": true, "rating": 0, "payment_methods": ["Cash", "BuckID", "Visa", "Apple Pay", "Discover", "Mastercard", "GooglePay", "AmEx"], "room_number": "1st Floor Student Lounge", "services": ["drinks"], "provider": "Coca Cola", "location": {"lat": -83.01394, "lon": 40.00268}}
{"index": {"_index": "vending_machines", "_id": "53"}}
{"machine_id": "53", "store_name": "Siebert Hall", "address": "184 W. 11th Ave.", "city": "Columbus", "zip": "43210", "campus": "South Campus (Columbus)", "status": "Normal", "special_access": false, "rating": 0, "payment_methods": ["BuckID"], "room_number": "nan", "services": ["other"], "provider": "UNKNOWN", "location": {"lat": -83.01231327, "lon": 39.9957418}}
{"index": {"_index": "vending_machines", "_id": "54"}}
{"machine_id": "54", "store_name": "Smith-Steeb Hall", "address": "92 W. 11th Ave.", "city": "Columbus", "zip": "43210", "campus": "South Campus (Columbus)", "status": "Normal", "special_access": true, "rating": 0, "payment_methods": ["Cash", "Visa", "Apple Pay", "Discover", "Mastercard", "Google Pay", "AmEx", "BuckID"], "room_number": "Room 181", "services": ["drinks"], "provider": "Coca Cola", "location": {"lat": -83.00924, "lon": 39.99583}}
{"index": {"_index": "vending_machines", "_id": "55"}}
{"machine_id": "55", "store_name": "Smith-Steeb Hall", "address": "92 W. 11th Ave.", "city": "Columbus", "zip": "43210", "campus": "South Campus (Columbus)", "status": "Normal", "special_access": true, "rating": 0, "payment_methods": ["Cash", "Visa", "Apple Pay", "Discover", "Mastercard", "Google Pay", "AmEx", "BuckID"], "room_number": "Room 181", "services": ["drinks"], "provider": "Various", "location": {"lat": -83.00924, "lon": 39.99583}}
{"index": {"_index": "vending_machines", "_id": "56"}}
{"machine_id": "56", "store_name": "Taylor Tower", "address": "55 West Lane Avenue", "city": "Columbus", "zip": "43210", "campus": "North Campus (Columbus)", "status": "Normal", "special_access": true, "rating": 0, "payment_methods": ["BuckID"], "room_number": "nan", "services": ["other"], "provider": "UNKNOWN", "location": {"lat": 83.01073354, "lon": 40.00584152}}
{"index": {"_index": "vending_machines", "_id": "57"}}
{"machine_id": "57", "store_name": "University Hall", "address": "230 N Oval Mall", "city": "Columbus", "zip": "43210", "campus": "North Campus (Columbus)", "status": "Normal", "special_access": false, "rating": 0, "payment_methods": ["Visa", "BuckID", "Apple Pay", "Discover", "Mastercard", "Google Pay", "AmEx"], "room_number": "Room 51", "services": ["drinks"], "provider": "Coca Cola", "location": {"lat": -83.01448, "lon": 40.00069}}
{"index": {"_index": "vending_machines", "_id": "58"}}
{"machine_id": "58", "store_name": "University Hall", "address": "230 N Oval Mall", "city": "Columbus", "zip": "43210", "campus": "North Campus (Columbus)", "status": "Normal", "special_access": false, "rating": 0, "payment_methods": ["Visa", "Apple Pay", "Discover", "Mastercard", "BuckID", "Google Pay", "AmEx"], "room_number": "Room 51", "services": ["drinks"], "provider": "Vitamin, Minute Maid, Dasani", "location": {"lat": -83.01448, "lon": 40.00069}}
{"index": {"_index": "vending_machines", "_id": "59"}}
{"machine_id": "59", "store_name": "University Hall", "address": "230 N Oval Mall", "city": "Columbus", "zip": "43210", "campus": "North Campus (Columbus)", "status": "Normal", "special_access": false, "rating": 0, "payment_methods": ["Cash", "Visa", "Apple Pay", "Discover", "Mastercard", "Google Pay", "AmEx", "Union Pay", "BuckID"], "room_number": "Room 51", "services": ["drinks"], "provider": "Various", "location": {"lat": -83.01448, "lon": 40.00069}}
{"index": {"_index": "vending_machines", "_id": "60"}}
{"machine_id": "60", "store_name": "University Hall", "address": "230 N Oval Mall", "city": "Columbus", "zip": "43210", "campus": "North Campus (Columbus)", "status": "Normal", "special_access": false, "rating": 0, "payment_methods": ["Cash", "Mastercard", "Visa", "AmEx", "Discover"], "room_number": "Room 51", "services": ["snacks"], "provider": "Various", "location": {"lat": -83.01448, "lon": 40.00077}}
{"index": {"_index": "vending_machines", "_id": "61"}}
{"machine_id": "61", "store_name": "Vet Med Academic Building", "address": "1900 Coffey Road", "city": "Columbus", "zip": "43210", "campus": "West Campus (Columbus)", "status": "Normal", "special_access": false, "rating": 0, "payment_methods": ["BuckID"], "room_number": "nan", "services": ["other"], "provider": "UNKNOWN", "location": {"lat": -83.02663135, "lon": 39.99967486}}
{"index": {"_index": "vending_machines", "_id": "62"}}
{"machine_id": "62", "store_name": "Worthington Building", "address": "249 W. 10th Ave.", "city": "Columbus", "zip": "43210", "campus": "South Campus (Columbus)", "status": "Normal", "special_access": false, "rating": 0, "payment_methods": ["BuckID"], "room_number": "nan", "services": ["other"], "provider": "UNKNOWN", "location": {"lat": -83.01382277, "lon": 39.99436395}}
